#version,serial,flight,call,time,rssi,lqi,state,state_name,acceleration,pressure,altitude,height,speed,temperature,drogue_voltage,main_voltage,battery_voltage,accel_x,accel_y,accel_z,gyro_roll,gyro_pitch,gyro_yaw,mag_x,mag_y,mag_z,tilt,pyro,igniter_a,igniter_b,igniter_c,igniter_d,connected,locked,nsat,latitude,longitude,altitude,year,month,day,hour,minute,second,pad_dist,pad_range,pad_az,pad_el,pdop,hdop,vdop,sat01,sat02,sat03,sat04,sat05,sat06,sat07,sat08,sat09,sat10,sat11,sat12,sat13,sat14,sat15,sat16,sat17,sat18,sat19,sat20,sat21,sat22,sat23,sat24,sat25,sat26,sat27,sat28,sat29,sat30,sat31,sat32
6, 10970, 17,HANARO,    -1.60, -89,   6, 3,   boost,   -0.00, 103297.00, -162.88,    0.74,    0.00, 10.2, 4.02, 4.02, 4.04,   9.76,   0.53,  -1.31,  -0.49,   0.00,  -0.73,   0.26,   0.17,  -0.31,   5.00, 4.04, 0.00, 0.00, 0.00, 4.02, 1, 1,  9,  35.8841391, 126.7949546,    23.0, 2025,  2, 23,  6,  8, 20,        0,        0, 107,   0,   1.9,   1.1,   1.5, 21, 16, 16,  0,  0,  0, 27, 34,  0, 36,  0,  0,  0, 31,  0,  0, 32,  0,  0,  0,  0, 31,  0,  0,  0,  0, 37,  0,  0, 29,  0,  0
6, 10970, 17,HANARO,    -1.57, -87,   8, 3,   boost,   -0.00, 103297.00, -162.88,    0.74,    0.00, 10.2, 4.02, 4.02, 4.04,   9.76,   0.53,  -1.31,  -0.49,   0.00,  -0.73,   0.26,   0.17,  -0.31,   5.00, 4.04, 0.00, 0.00, 0.00, 4.02, 1, 1,  9,  35.8841391, 126.7949546,    23.0, 2025,  2, 23,  6,  8, 20,        0,        0, 107,   0,   1.9,   1.1,   1.5, 21, 16, 16,  0,  0,  0, 27, 34,  0, 36,  0,  0,  0, 31,  0,  0, 32,  0,  0,  0,  0, 31,  0,  0,  0,  0, 37,  0,  0, 29,  0,  0
6, 10970, 17,HANARO,    -1.42, -87,  10, 3,   boost,   -0.00, 103297.00, -162.88,    0.74,    0.00, 10.2, 4.02, 4.02, 4.04,   9.76,   0.53,  -1.31,  -0.49,   0.00,  -0.73,   0.26,   0.17,  -0.31,   5.00, 4.04, 0.00, 0.00, 0.00, 4.02, 1, 1,  9,  35.8841389, 126.7949540,    22.0, 2025,  2, 23,  6,  8, 21,        0,        1, 208, -88,   1.9,   1.1,   1.5, 21, 15, 17,  0,  0,  0, 27, 34,  0, 36,  0,  0,  0, 31,  0,  0, 32,  0,  0,  0,  0, 31,  0,  0,  0,  0, 37,  0,  0, 29,  0,  0
6, 10970, 17,HANARO,    -1.42, -86,   7, 3,   boost,   -0.00, 103297.00, -162.88,    0.74,    0.00, 10.2, 4.02, 4.02, 4.04,   9.76,   0.53,  -1.31,  -0.49,   0.00,  -0.73,   0.26,   0.17,  -0.31,   5.00, 4.04, 0.00, 0.00, 0.00, 4.02, 1, 1,  9,  35.8841389, 126.7949540,    22.0, 2025,  2, 23,  6,  8, 21,        0,        1, 208, -88,   1.9,   1.1,   1.5, 21, 15, 17,  0,  0,  0, 27, 34,  0, 36,  0,  0,  0, 31,  0,  0, 32,  0,  0,  0,  0, 31,  0,  0,  0,  0, 37,  0,  0, 29,  0,  0
6, 10970, 17,HANARO,    -0.59, -88,   7, 3,   boost,    0.98, 103296.00, -162.79,    0.82,    0.46, 10.2, 4.02, 4.02, 4.04,   9.78,   0.36,  -1.24,   4.58,  -0.18,   2.01,   0.25,   0.17,  -0.31,   5.00, 4.04, 0.00, 0.00, 0.00, 4.02, 1, 1,  9,  35.8841389, 126.7949540,    22.0, 2025,  2, 23,  6,  8, 21,        0,        1, 208, -88,   1.9,   1.1,   1.5, 21, 15, 17,  0,  0,  0, 27, 34,  0, 36,  0,  0,  0, 31,  0,  0, 32,  0,  0,  0,  0, 31,  0,  0,  0,  0, 37,  0,  0, 29,  0,  0
6, 10970, 17,HANARO,    -0.56, -87,   7, 3,   boost,    0.98, 103296.00, -162.79,    0.82,    0.46, 10.2, 4.02, 4.02, 4.03,   9.78,   0.36,  -1.24,   4.58,  -0.18,   2.01,   0.25,   0.17,  -0.31,   5.00, 4.04, 0.00, 0.00, 0.00, 4.02, 1, 1,  9,  35.8841389, 126.7949540,    22.0, 2025,  2, 23,  6,  8, 21,        0,        1, 208, -88,   1.9,   1.1,   1.5, 21, 15, 17,  0,  0,  0, 27, 34,  0, 36,  0,  0,  0, 31,  0,  0, 32,  0,  0,  0,  0, 31,  0,  0,  0,  0, 37,  0,  0, 29,  0,  0
6, 10970, 17,HANARO,    -0.42,-108,   7, 3,   boost,    0.98, 103296.00, -162.79,    0.82,    0.46, 10.2, 4.02, 4.02, 4.03,   9.78,   0.36,  -1.24,   4.58,  -0.18,   2.01,   0.25,   0.17,  -0.31,   5.00, 4.04, 0.00, 0.00, 0.00, 4.02, 1, 1,  9,  35.8841392, 126.7949542,    23.0, 2025,  2, 23,  6,  8, 22,        0,        0,   0,   0,   1.9,   1.1,   1.5, 20, 14, 18,  0,  0,  0, 27, 34,  0, 36,  0,  0,  0, 31,  0,  0, 32,  0,  0,  0,  0, 31,  0,  0,  0,  0, 37,  0,  0, 29,  0,  0
6, 10970, 17,HANARO,    -0.03, -82,   6, 3,   boost,   41.68, 103299.00, -163.04,    0.57,   12.33, 10.2, 4.02, 4.02, 4.03,  49.82,   0.49,  -0.96, -21.48,   1.10,   3.54,   0.25,   0.20,  -0.31,   5.00, 4.04, 0.00, 0.00, 0.00, 4.02, 1, 1,  9,  35.8841392, 126.7949542,    23.0, 2025,  2, 23,  6,  8, 22,        0,        0,   0,   0,   1.9,   1.1,   1.5, 20, 14, 18,  0,  0,  0, 27, 34,  0, 36,  0,  0,  0, 31,  0,  0, 32,  0,  0,  0,  0, 31,  0,  0,  0,  0, 37,  0,  0, 29,  0,  0
6, 10970, 17,HANARO,     0.00, -81,   8, 3,   boost,   41.68, 103299.00, -163.04,    0.57,   12.33, 10.2, 4.02, 4.02, 4.04,  49.82,   0.49,  -0.96, -21.48,   1.10,   3.54,   0.25,   0.20,  -0.31,   5.00, 4.03, 0.00, 0.00, 0.00, 4.02, 1, 1,  9,  35.8841392, 126.7949542,    23.0, 2025,  2, 23,  6,  8, 22,        0,        0,   0,   0,   1.9,   1.1,   1.5, 20, 14, 18,  0,  0,  0, 27, 34,  0, 36,  0,  0,  0, 31,  0,  0, 32,  0,  0,  0,  0, 31,  0,  0,  0,  0, 37,  0,  0, 29,  0,  0
6, 10970, 17,HANARO,     0.07, -81,   8, 3,   boost,   46.09, 103276.00, -161.15,    2.46,   16.70, 10.2, 4.02, 4.02, 4.04,  55.59,  -2.23,  -1.24, -26.18,   2.99,   4.03,   0.25,   0.21,  -0.31,   6.00, 4.03, 0.00, 0.00, 0.00, 4.02, 1, 1,  9,  35.8841392, 126.7949542,    23.0, 2025,  2, 23,  6,  8, 22,        0,        0,   0,   0,   1.9,   1.1,   1.5, 20, 14, 18,  0,  0,  0, 27, 34,  0, 36,  0,  0,  0, 31,  0,  0, 32,  0,  0,  0,  0, 31,  0,  0,  0,  0, 37,  0,  0, 29,  0,  0
6, 10970, 17,HANARO,     0.10, -78,   4, 3,   boost,   46.09, 103276.00, -161.15,    2.46,   16.70, 10.2, 4.02, 4.02, 4.04,  55.59,  -2.23,  -1.24, -26.18,   2.99,   4.03,   0.25,   0.21,  -0.31,   6.00, 4.04, 0.00, 0.00, 0.00, 4.02, 1, 1,  9,  35.8841392, 126.7949542,    23.0, 2025,  2, 23,  6,  8, 22,        0,        0,   0,   0,   1.9,   1.1,   1.5, 20, 14, 18,  0,  0,  0, 27, 34,  0, 36,  0,  0,  0, 31,  0,  0, 32,  0,  0,  0,  0, 31,  0,  0,  0,  0, 37,  0,  0, 29,  0,  0
6, 10970, 17,HANARO,     0.18, -79,  10, 3,   boost,   47.56, 103255.00, -159.43,    4.18,   21.81, 10.2, 4.02, 4.02, 4.04,  59.89,  -2.22,   0.45,   1.22,   1.71,   1.22,   0.26,   0.21,  -0.31,   6.00, 4.04, 0.00, 0.00, 0.00, 4.02, 1, 1,  9,  35.8841392, 126.7949542,    23.0, 2025,  2, 23,  6,  8, 22,        0,        0,   0,   0,   1.9,   1.1,   1.5, 20, 14, 18,  0,  0,  0, 27, 34,  0, 36,  0,  0,  0, 31,  0,  0, 32,  0,  0,  0,  0, 31,  0,  0,  0,  0, 37,  0,  0, 29,  0,  0
6, 10970, 17,HANARO,     0.21, -78,   5, 3,   boost,   47.56, 103255.00, -159.43,    4.18,   21.81, 10.2, 4.02, 4.02, 4.03,  59.89,  -2.22,   0.45,   1.22,   1.71,   1.22,   0.26,   0.21,  -0.31,   6.00, 4.04, 0.00, 0.00, 0.00, 4.02, 1, 1,  9,  35.8841392, 126.7949542,    23.0, 2025,  2, 23,  6,  8, 22,        0,        0,   0,   0,   1.9,   1.1,   1.5, 20, 14, 18,  0,  0,  0, 27, 34,  0, 36,  0,  0,  0, 31,  0,  0, 32,  0,  0,  0,  0, 31,  0,  0,  0,  0, 37,  0,  0, 29,  0,  0
6, 10970, 17,HANARO,     0.29, -83,  13, 3,   boost,   53.94, 103208.00, -155.58,    8.03,   27.36, 10.2, 4.02, 4.02, 4.03,  63.06,   0.36,  -4.23,  75.87,   8.36,   0.55,   0.25,   0.18,  -0.32,   6.00, 4.04, 0.00, 0.00, 0.00, 4.02, 1, 1,  9,  35.8841392, 126.7949542,    23.0, 2025,  2, 23,  6,  8, 22,        0,        0,   0,   0,   1.9,   1.1,   1.5, 20, 14, 18,  0,  0,  0, 27, 34,  0, 36,  0,  0,  0, 31,  0,  0, 32,  0,  0,  0,  0, 31,  0,  0,  0,  0, 37,  0,  0, 29,  0,  0
6, 10970, 17,HANARO,     0.32, -82,   7, 3,   boost,   53.94, 103208.00, -155.58,    8.03,   27.36, 10.2, 4.02, 4.02, 4.04,  63.06,   0.36,  -4.23,  75.87,   8.36,   0.55,   0.25,   0.18,  -0.32,   6.00, 4.04, 0.00, 0.00, 0.00, 4.02, 1, 1,  9,  35.8841392, 126.7949542,    23.0, 2025,  2, 23,  6,  8, 22,        0,        0,   0,   0,   1.9,   1.1,   1.5, 20, 15, 18,  0,  0,  0, 27, 34,  0, 36,  0,  0,  0, 31,  0,  0, 32,  0,  0,  0,  0, 31,  0,  0,  0,  0, 37,  0,  0, 29,  0,  0
6, 10970, 17,HANARO,     0.32, -82,   8, 3,   boost,   53.94, 103208.00, -155.58,    8.03,   27.36, 10.2, 4.02, 4.02, 4.04,  63.06,   0.36,  -4.23,  75.87,   8.36,   0.55,   0.25,   0.18,  -0.32,   6.00, 4.04, 0.00, 0.00, 0.00, 4.02, 1, 1,  9,  35.8841392, 126.7949542,    23.0, 2025,  2, 23,  6,  8, 22,        0,        0,   0,   0,   1.9,   1.1,   1.5, 20, 15, 18,  0,  0,  0, 27, 34,  0, 36,  0,  0,  0, 31,  0,  0, 32,  0,  0,  0,  0, 31,  0,  0,  0,  0, 37,  0,  0, 29,  0,  0
6, 10970, 17,HANARO,     0.40, -79,   9, 3,   boost,   56.88, 103176.00, -152.95,   10.66,   33.41, 10.2, 4.02, 4.02, 4.04,  66.45,  -0.64,  -1.95,  63.90,   5.25,  -1.83,   0.25,   0.14,  -0.32,   7.00, 4.04, 0.00, 0.00, 0.00, 4.02, 1, 1,  9,  35.8841392, 126.7949542,    23.0, 2025,  2, 23,  6,  8, 22,        0,        0,   0,   0,   1.9,   1.1,   1.5, 20, 15, 18,  0,  0,  0, 27, 34,  0, 36,  0,  0,  0, 31,  0,  0, 32,  0,  0,  0,  0, 31,  0,  0,  0,  0, 37,  0,  0, 29,  0,  0
6, 10970, 17,HANARO,     0.43, -79,   5, 3,   boost,   56.88, 103176.00, -152.95,   10.66,   33.41, 10.2, 4.02, 4.02, 4.04,  66.45,  -0.64,  -1.95,  63.90,   5.25,  -1.83,   0.25,   0.14,  -0.32,   7.00, 4.04, 0.00, 0.00, 0.00, 4.02, 1, 1,  9,  35.8841392, 126.7949542,    23.0, 2025,  2, 23,  6,  8, 22,        0,        0,   0,   0,   1.9,   1.1,   1.5, 20, 15, 18,  0,  0,  0, 27, 34,  0, 36,  0,  0,  0, 31,  0,  0, 32,  0,  0,  0,  0, 31,  0,  0,  0,  0, 37,  0,  0, 29,  0,  0
6, 10970, 17,HANARO,     0.43, -77,   7, 3,   boost,   56.88, 103176.00, -152.95,   10.66,   33.41, 10.2, 4.02, 4.02, 4.04,  66.45,  -0.64,  -1.95,  63.90,   5.25,  -1.83,   0.25,   0.14,  -0.32,   7.00, 4.04, 0.00, 0.00, 0.00, 4.02, 1, 1,  9,  35.8841392, 126.7949542,    23.0, 2025,  2, 23,  6,  8, 22,        0,        0,   0,   0,   1.9,   1.1,   1.5, 20, 15, 18,  0,  0,  0, 27, 34,  0, 36,  0,  0,  0, 31,  0,  0, 32,  0,  0,  0,  0, 31,  0,  0,  0,  0, 37,  0,  0, 29,  0,  0
6, 10970, 17,HANARO,     0.51, -78,   8, 3,   boost,   59.33, 103119.00, -148.28,   15.34,   39.74, 10.2, 4.02, 4.02, 4.04,  69.49,  -0.37,  -2.21,  46.08,   6.23,  -4.52,   0.24,   0.11,  -0.32,   7.00, 4.04, 0.00, 0.00, 0.00, 4.02, 1, 1,  9,  35.8841392, 126.7949542,    23.0, 2025,  2, 23,  6,  8, 22,        0,        0,   0,   0,   1.9,   1.1,   1.5, 20, 15, 18,  0,  0,  0, 27, 34,  0, 36,  0,  0,  0, 31,  0,  0, 32,  0,  0,  0,  0, 31,  0,  0,  0,  0, 37,  0,  0, 29,  0,  0
6, 10970, 17,HANARO,     0.54, -75,   6, 3,   boost,   59.33, 103119.00, -148.28,   15.34,   39.74, 10.2, 4.02, 4.02, 4.04,  69.49,  -0.37,  -2.21,  46.08,   6.23,  -4.52,   0.24,   0.11,  -0.32,   7.00, 4.04, 0.00, 0.00, 0.00, 4.02, 1, 1,  9,  35.8841392, 126.7949542,    23.0, 2025,  2, 23,  6,  8, 22,        0,        0,   0,   0,   1.9,   1.1,   1.5, 20, 15, 18,  0,  0,  0, 27, 34,  0, 36,  0,  0,  0, 31,  0,  0, 32,  0,  0,  0,  0, 31,  0,  0,  0,  0, 37,  0,  0, 29,  0,  0
6, 10970, 17,HANARO,     0.58, -80,   6, 3,   boost,   59.33, 103119.00, -148.28,   15.34,   39.74, 10.2, 4.02, 4.02, 4.04,  69.49,  -0.37,  -2.21,  46.08,   6.23,  -4.52,   0.24,   0.11,  -0.32,   7.00, 4.04, 0.00, 0.00, 0.00, 4.02, 1, 1, 10,  35.8841747, 126.7949760,    41.0, 2025,  2, 23,  6,  8, 23,        4,       19,  26,  76,   1.5,   0.8,   1.3, 20, 15, 18,  0,  0,  0, 27, 34,  0, 36,  0,  0,  0, 31,  0,  0, 32,  0,  0,  0,  0, 31,  0,  0,  0,  0, 37,  0,  0, 29,  0,  0
6, 10970, 17,HANARO,     0.62, -75,   8, 3,   boost,   61.29, 103059.00, -143.35,   20.26,   46.31, 10.2, 4.02, 4.02, 4.04,  72.23,   0.30,  -2.97,  18.19,   7.63,  -4.52,   0.24,   0.09,  -0.32,   8.00, 4.04, 0.00, 0.00, 0.00, 4.02, 1, 1, 10,  35.8841747, 126.7949760,    41.0, 2025,  2, 23,  6,  8, 23,        4,       19,  26,  76,   1.5,   0.8,   1.3, 20, 15, 18,  0,  0,  0, 27, 34,  0, 36,  0,  0,  0, 31,  0,  0, 32,  0,  0,  0,  0, 31,  0,  0,  0,  0, 37,  0,  0, 29,  0,  0
6, 10970, 17,HANARO,     0.65, -74,   8, 3,   boost,   61.29, 103059.00, -143.35,   20.26,   46.31, 10.2, 4.02, 4.02, 4.03,  72.23,   0.30,  -2.97,  18.19,   7.63,  -4.52,   0.24,   0.09,  -0.32,   8.00, 4.04, 0.00, 0.00, 0.00, 4.02, 1, 1, 10,  35.8841747, 126.7949760,    41.0, 2025,  2, 23,  6,  8, 23,        4,       19,  26,  76,   1.5,   0.8,   1.3, 20, 15, 18,  0,  0,  0, 27, 34,  0, 36,  0,  0,  0, 31,  0,  0, 32,  0,  0,  0,  0, 31,  0,  0,  0,  0, 37,  0,  0, 29,  0,  0
6, 10970, 17,HANARO,     0.73, -74,  12, 3,   boost,   63.74, 102978.00, -136.70,   26.91,   53.11, 10.2, 4.02, 4.02, 4.03,  74.21,   0.46,  -3.00,  23.74,  10.93,  -4.58,   0.23,   0.09,  -0.32,   8.00, 4.04, 0.00, 0.00, 0.00, 4.02, 1, 1, 10,  35.8841747, 126.7949760,    41.0, 2025,  2, 23,  6,  8, 23,        4,       19,  26,  76,   1.5,   0.8,   1.3, 20, 15, 18,  0,  0,  0, 27, 34,  0, 36,  0,  0,  0, 31,  0,  0, 32,  0,  0,  0,  0, 31,  0,  0,  0,  0, 37,  0,  0, 29,  0,  0
6, 10970, 17,HANARO,     0.76, -73,   8, 3,   boost,   63.74, 102978.00, -136.70,   26.91,   53.11, 10.2, 4.02, 4.02, 4.04,  74.21,   0.46,  -3.00,  23.74,  10.93,  -4.58,   0.23,   0.09,  -0.32,   8.00, 4.03, 0.00, 0.00, 0.00, 4.02, 1, 1, 10,  35.8841747, 126.7949760,    41.0, 2025,  2, 23,  6,  8, 23,        4,       19,  26,  76,   1.5,   0.8,   1.3, 20, 15, 18,  0,  0,  0, 27, 34,  0, 36,  0,  0,  0, 31,  0,  0, 32,  0,  0,  0,  0, 31,  0,  0,  0,  0, 37,  0,  0, 29,  0,  0
6, 10970, 17,HANARO,     0.84, -75,   5, 3,   boost,   67.18, 102906.00, -130.78,   32.83,   60.21, 10.2, 4.02, 4.02, 4.04,  77.19,  -0.04,  -2.14,  36.62,  13.73,  -4.03,   0.22,   0.07,  -0.32,  10.00, 4.03, 0.00, 0.00, 0.00, 4.02, 1, 1, 10,  35.8841747, 126.7949760,    41.0, 2025,  2, 23,  6,  8, 23,        4,       19,  26,  76,   1.5,   0.8,   1.3, 20, 15, 18,  0,  0,  0, 27, 34,  0, 36,  0,  0,  0, 31,  0,  0, 32,  0,  0,  0,  0, 31,  0,  0,  0,  0, 37,  0,  0, 29,  0,  0
6, 10970, 17,HANARO,     0.87, -72,   4, 3,   boost,   67.18, 102906.00, -130.78,   32.83,   60.21, 10.2, 4.02, 4.02, 4.03,  77.19,  -0.04,  -2.14,  36.62,  13.73,  -4.03,   0.22,   0.07,  -0.32,  10.00, 4.03, 0.00, 0.00, 0.00, 4.02, 1, 1, 10,  35.8841747, 126.7949760,    41.0, 2025,  2, 23,  6,  8, 23,        4,       19,  26,  76,   1.5,   0.8,   1.3, 20, 15, 18,  0,  0,  0, 27, 34,  0, 36,  0,  0,  0, 31,  0,  0, 32,  0,  0,  0,  0, 31,  0,  0,  0,  0, 37,  0,  0, 29,  0,  0
6, 10970, 17,HANARO,     0.95, -72,  10, 3,   boost,   71.10, 102819.00, -123.63,   39.98,   67.67, 10.2, 4.02, 4.02, 4.03,  79.55,   0.41,  -2.18,  45.84,  15.26,  -4.39,   0.21,   0.04,  -0.32,  11.00, 4.03, 0.00, 0.00, 0.00, 4.02, 1, 1, 10,  35.8841747, 126.7949760,    41.0, 2025,  2, 23,  6,  8, 23,        4,       19,  26,  76,   1.5,   0.8,   1.3, 20, 15, 18,  0,  0,  0, 27, 34,  0, 36,  0,  0,  0, 31,  0,  0, 32,  0,  0,  0,  0, 31,  0,  0,  0,  0, 37,  0,  0, 29,  0,  0
6, 10970, 17,HANARO,     0.98, -72,   8, 3,   boost,   71.10, 102819.00, -123.63,   39.98,   67.67, 10.2, 4.02, 4.02, 4.04,  79.55,   0.41,  -2.18,  45.84,  15.26,  -4.39,   0.21,   0.04,  -0.32,  11.00, 4.04, 0.00, 0.00, 0.00, 4.02, 1, 1, 10,  35.8841747, 126.7949760,    41.0, 2025,  2, 23,  6,  8, 23,        4,       19,  26,  76,   1.5,   0.8,   1.3, 20, 15, 18,  0,  0,  0, 27, 34,  0, 36,  0,  0,  0, 31,  0,  0, 32,  0,  0,  0,  0, 31,  0,  0,  0,  0, 37,  0,  0, 29,  0,  0
6, 10970, 17,HANARO,     1.06, -71,   5, 3,   boost,   71.10, 102734.00, -116.63,   46.98,   75.31, 10.2, 4.02, 4.02, 4.04,  82.35,   0.35,  -1.20,  31.56,  15.87,  -4.70,   0.20,   0.02,  -0.32,  12.00, 4.04, 0.00, 0.00, 0.00, 4.02, 1, 1, 10,  35.8841747, 126.7949760,    41.0, 2025,  2, 23,  6,  8, 23,        4,       19,  26,  76,   1.5,   0.8,   1.3, 20, 15, 18,  0,  0,  0, 27, 34,  0, 36,  0,  0,  0, 31,  0,  0, 32,  0,  0,  0,  0, 31,  0,  0,  0,  0, 37,  0,  0, 29,  0,  0
6, 10970, 17,HANARO,     1.09, -72,   7, 3,   boost,   71.10, 102734.00, -116.63,   46.98,   75.31, 10.2, 4.02, 4.02, 4.03,  82.35,   0.35,  -1.20,  31.56,  15.87,  -4.70,   0.20,   0.02,  -0.32,  12.00, 4.04, 0.00, 0.00, 0.00, 4.02, 1, 1, 10,  35.8841747, 126.7949760,    41.0, 2025,  2, 23,  6,  8, 23,        4,       19,  26,  76,   1.5,   0.8,   1.3, 20, 15, 18,  0,  0,  0, 27, 34,  0, 36,  0,  0,  0, 31,  0,  0, 32,  0,  0,  0,  0, 31,  0,  0,  0,  0, 37,  0,  0, 29,  0,  0
6, 10970, 17,HANARO,     1.17, -75,   8, 3,   boost,   74.04, 102609.00, -106.34,   57.27,   83.06, 10.2, 4.02, 4.02, 4.03,  84.64,   0.64,  -0.05,  -1.53,  14.77,  -4.76,   0.19,   0.02,  -0.33,  14.00, 4.04, 0.00, 0.00, 0.00, 4.02, 1, 1, 10,  35.8841747, 126.7949760,    41.0, 2025,  2, 23,  6,  8, 23,        4,       19,  26,  76,   1.5,   0.8,   1.3, 20, 15, 18,  0,  0,  0, 27, 34,  0, 36,  0,  0,  0, 31,  0,  0, 32,  0,  0,  0,  0, 31,  0,  0,  0,  0, 37,  0,  0, 29,  0,  0
6, 10970, 17,HANARO,     1.20, -74,   8, 3,   boost,   74.04, 102609.00, -106.34,   57.27,   83.06, 10.2, 4.02, 4.02, 4.04,  84.64,   0.64,  -0.05,  -1.53,  14.77,  -4.76,   0.19,   0.02,  -0.33,  14.00, 4.04, 0.00, 0.00, 0.00, 4.02, 1, 1, 10,  35.8841747, 126.7949760,    41.0, 2025,  2, 23,  6,  8, 23,        4,       19,  26,  76,   1.5,   0.8,   1.3, 20, 15, 18,  0,  0,  0, 27, 34,  0, 36,  0,  0,  0, 31,  0,  0, 32,  0,  0,  0,  0, 31,  0,  0,  0,  0, 37,  0,  0, 29,  0,  0
6, 10970, 17,HANARO,     1.28, -78,   6, 3,   boost,   76.49, 102493.00,  -96.78,   66.84,   91.04, 10.2, 4.02, 4.02, 4.04,  86.57,   1.24,  -0.93, -41.93,  12.21,  -5.13,   0.19,   0.04,  -0.34,  15.00, 4.04, 0.00, 0.00, 0.00, 4.02, 1, 1, 10,  35.8841747, 126.7949760,    41.0, 2025,  2, 23,  6,  8, 23,        4,       19,  26,  76,   1.5,   0.8,   1.3, 20, 15, 18,  0,  0,  0, 27, 34,  0, 36,  0,  0,  0, 31,  0,  0, 32,  0,  0,  0,  0, 31,  0,  0,  0,  0, 37,  0,  0, 29,  0,  0
6, 10970, 17,HANARO,     1.31, -81,   5, 3,   boost,   76.49, 102493.00,  -96.78,   66.84,   91.04, 10.2, 4.02, 4.02, 4.04,  86.57,   1.24,  -0.93, -41.93,  12.21,  -5.13,   0.19,   0.04,  -0.34,  15.00, 4.04, 0.00, 0.00, 0.00, 4.02, 1, 1, 10,  35.8841747, 126.7949760,    41.0, 2025,  2, 23,  6,  8, 23,        4,       19,  26,  76,   1.5,   0.8,   1.3, 20, 15, 18,  0,  0,  0, 27, 34,  0, 36,  0,  0,  0, 31,  0,  0, 32,  0,  0,  0,  0, 31,  0,  0,  0,  0, 37,  0,  0, 29,  0,  0
6, 10970, 17,HANARO,     1.39, -82,   8, 3,   boost,   81.40, 102332.00,  -83.49,   80.12,   99.37, 10.2, 4.02, 4.02, 4.04,  88.83,   2.02,   0.06, -81.67,  10.25,  -3.72,   0.18,   0.09,  -0.37,  16.00, 4.04, 0.00, 0.00, 0.00, 4.02, 1, 1, 10,  35.8841747, 126.7949760,    41.0, 2025,  2, 23,  6,  8, 23,        4,       19,  26,  76,   1.5,   0.8,   1.3, 20, 15, 18,  0,  0,  0, 27, 34,  0, 36,  0,  0,  0, 31,  0,  0, 32,  0,  0,  0,  0, 31,  0,  0,  0,  0, 37,  0,  0, 29,  0,  0
6, 10970, 17,HANARO,     1.42, -82,   7, 3,   boost,   81.40, 102332.00,  -83.49,   80.12,   99.37, 10.2, 4.02, 4.02, 4.03,  88.83,   2.02,   0.06, -81.67,  10.25,  -3.72,   0.18,   0.09,  -0.37,  16.00, 4.04, 0.00, 0.00, 0.00, 4.02, 1, 1, 10,  35.8841747, 126.7949760,    41.0, 2025,  2, 23,  6,  8, 23,        4,       19,  26,  76,   1.5,   0.8,   1.3, 20, 16, 19,  0,  0,  0, 26, 34,  0, 34,  0,  0,  0, 23,  0,  0, 18,  0,  0,  0,  0, 26,  0,  0,  0,  0, 33,  0,  0, 17,  0,  0
6, 10970, 17,HANARO,     1.42, -83,   7, 3,   boost,   81.40, 102332.00,  -83.49,   80.12,   99.37, 10.2, 4.02, 4.02, 4.03,  88.83,   2.02,   0.06, -81.67,  10.25,  -3.72,   0.18,   0.09,  -0.37,  16.00, 4.04, 0.00, 0.00, 0.00, 4.02, 1, 1, 10,  35.8841747, 126.7949760,    41.0, 2025,  2, 23,  6,  8, 23,        4,       19,  26,  76,   1.5,   0.8,   1.3, 20, 16, 19,  0,  0,  0, 26, 34,  0, 34,  0,  0,  0, 23,  0,  0, 18,  0,  0,  0,  0, 26,  0,  0,  0,  0, 33,  0,  0, 17,  0,  0
6, 10970, 17,HANARO,     1.50, -80,   9, 3,   boost,   78.94, 102194.00,  -72.09,   91.53,  107.78, 10.2, 4.02, 4.02, 4.03,  90.67,   2.74,   0.42,-110.53,   8.36,  -1.65,   0.18,   0.17,  -0.38,  17.00, 4.04, 0.00, 0.00, 0.00, 4.02, 1, 1, 10,  35.8841747, 126.7949760,    41.0, 2025,  2, 23,  6,  8, 23,        4,       19,  26,  76,   1.5,   0.8,   1.3, 20, 16, 19,  0,  0,  0, 26, 34,  0, 34,  0,  0,  0, 23,  0,  0, 18,  0,  0,  0,  0, 26,  0,  0,  0,  0, 33,  0,  0, 17,  0,  0
6, 10970, 17,HANARO,     1.53, -80,   6, 3,   boost,   78.94, 102194.00,  -72.09,   91.53,  107.78, 10.2, 4.02, 4.02, 4.04,  90.67,   2.74,   0.42,-110.53,   8.36,  -1.65,   0.18,   0.17,  -0.38,  17.00, 4.02, 0.00, 0.00, 0.00, 4.02, 1, 1, 10,  35.8841747, 126.7949760,    41.0, 2025,  2, 23,  6,  8, 23,        4,       19,  26,  76,   1.5,   0.8,   1.3, 20, 16, 19,  0,  0,  0, 26, 34,  0, 34,  0,  0,  0, 23,  0,  0, 18,  0,  0,  0,  0, 26,  0,  0,  0,  0, 33,  0,  0, 17,  0,  0
6, 10970, 17,HANARO,     1.58, -75,   6, 3,   boost,   78.94, 102194.00,  -72.09,   91.53,  107.78, 10.2, 4.02, 4.02, 4.04,  90.67,   2.74,   0.42,-110.53,   8.36,  -1.65,   0.18,   0.17,  -0.38,  17.00, 4.02, 0.00, 0.00, 0.00, 4.02, 1, 1, 10,  35.8843460, 126.7950609,   105.0, 2025,  2, 23,  6,  8, 24,       25,       86,  23,  73,   1.5,   0.8,   1.3, 20, 16, 19,  0,  0,  0, 26, 34,  0, 34,  0,  0,  0, 23,  0,  0, 18,  0,  0,  0,  0, 26,  0,  0,  0,  0, 33,  0,  0, 17,  0,  0
6, 10970, 17,HANARO,     1.61, -78,   7, 3,   boost,   83.36, 102022.00,  -57.86,  105.75,  116.24, 10.2, 4.02, 4.02, 4.04,  92.60,   2.19,   1.36,-133.48,   6.65,  -0.61,   0.18,   0.26,  -0.38,  18.00, 4.02, 0.00, 0.00, 0.00, 4.02, 1, 1, 10,  35.8843460, 126.7950609,   105.0, 2025,  2, 23,  6,  8, 24,       25,       86,  23,  73,   1.5,   0.8,   1.3, 20, 16, 19,  0,  0,  0, 26, 34,  0, 34,  0,  0,  0, 23,  0,  0, 18,  0,  0,  0,  0, 26,  0,  0,  0,  0, 33,  0,  0, 17,  0,  0
6, 10970, 17,HANARO,     1.64, -76,   7, 3,   boost,   83.36, 102022.00,  -57.86,  105.75,  116.24, 10.2, 4.02, 4.02, 4.04,  92.60,   2.19,   1.36,-133.48,   6.65,  -0.61,   0.18,   0.26,  -0.38,  18.00, 4.03, 0.00, 0.00, 0.00, 4.02, 1, 1, 10,  35.8843460, 126.7950609,   105.0, 2025,  2, 23,  6,  8, 24,       25,       86,  23,  73,   1.5,   0.8,   1.3, 20, 16, 19,  0,  0,  0, 26, 34,  0, 34,  0,  0,  0, 23,  0,  0, 18,  0,  0,  0,  0, 26,  0,  0,  0,  0, 33,  0,  0, 17,  0,  0
6, 10970, 17,HANARO,     1.72, -76,   7, 3,   boost,   83.36, 101855.00,  -44.03,  119.59,  124.88, 10.2, 4.02, 4.02, 4.04,  94.70,   2.39,  -0.15,-169.86,   4.94,   0.37,   0.17,   0.37,  -0.33,  19.00, 4.03, 0.00, 0.00, 0.00, 4.02, 1, 1, 10,  35.8843460, 126.7950609,   105.0, 2025,  2, 23,  6,  8, 24,       25,       86,  23,  73,   1.5,   0.8,   1.3, 20, 16, 19,  0,  0,  0, 26, 34,  0, 34,  0,  0,  0, 23,  0,  0, 18,  0,  0,  0,  0, 26,  0,  0,  0,  0, 33,  0,  0, 17,  0,  0
6, 10970, 17,HANARO,     1.75, -75,  10, 3,   boost,   83.36, 101855.00,  -44.03,  119.59,  124.88, 10.2, 4.02, 4.02, 4.04,  94.70,   2.39,  -0.15,-169.86,   4.94,   0.37,   0.17,   0.37,  -0.33,  19.00, 4.03, 0.00, 0.00, 0.00, 4.02, 1, 1, 10,  35.8843460, 126.7950609,   105.0, 2025,  2, 23,  6,  8, 24,       25,       86,  23,  73,   1.5,   0.8,   1.3, 20, 16, 19,  0,  0,  0, 26, 34,  0, 34,  0,  0,  0, 23,  0,  0, 18,  0,  0,  0,  0, 26,  0,  0,  0,  0, 33,  0,  0, 17,  0,  0
6, 10970, 17,HANARO,     1.83, -73,   5, 3,   boost,   82.87, 101648.00,  -26.85,  136.76,  133.46, 10.2, 4.02, 4.02, 4.04,  94.32,   1.52,   0.42,-207.28,   3.42,   0.24,   0.18,   0.48,  -0.23,  19.00, 4.03, 0.00, 0.00, 0.00, 4.02, 1, 1, 10,  35.8843460, 126.7950609,   105.0, 2025,  2, 23,  6,  8, 24,       25,       86,  23,  73,   1.5,   0.8,   1.3, 20, 16, 19,  0,  0,  0, 26, 34,  0, 34,  0,  0,  0, 23,  0,  0, 18,  0,  0,  0,  0, 26,  0,  0,  0,  0, 33,  0,  0, 17,  0,  0
6, 10970, 17,HANARO,     1.86, -73,   8, 3,   boost,   82.87, 101648.00,  -26.85,  136.76,  133.46, 10.2, 4.02, 4.02, 4.04,  94.32,   1.52,   0.42,-207.28,   3.42,   0.24,   0.18,   0.48,  -0.23,  19.00, 4.04, 0.00, 0.00, 0.00, 4.02, 1, 1, 10,  35.8843460, 126.7950609,   105.0, 2025,  2, 23,  6,  8, 24,       25,       86,  23,  73,   1.5,   0.8,   1.3, 20, 16, 19,  0,  0,  0, 26, 34,  0, 34,  0,  0,  0, 23,  0,  0, 18,  0,  0,  0,  0, 26,  0,  0,  0,  0, 33,  0,  0, 17,  0,  0
6, 10970, 17,HANARO,     1.94, -71,   8, 3,   boost,   84.34, 101458.00,  -11.07,  152.55,  142.10, 10.2, 4.02, 4.02, 4.04,  94.12,   2.79,   1.66,-240.66,   1.40,   2.14,   0.18,   0.55,  -0.07,  19.00, 4.04, 0.00, 0.00, 0.00, 4.02, 1, 1, 10,  35.8843460, 126.7950609,   105.0, 2025,  2, 23,  6,  8, 24,       25,       86,  23,  73,   1.5,   0.8,   1.3, 20, 16, 19,  0,  0,  0, 26, 34,  0, 34,  0,  0,  0, 23,  0,  0, 18,  0,  0,  0,  0, 26,  0,  0,  0,  0, 33,  0,  0, 17,  0,  0
6, 10970, 17,HANARO,     1.97, -69,   6, 3,   boost,   84.34, 101458.00,  -11.07,  152.55,  142.10, 10.2, 4.02, 4.02, 4.03,  94.12,   2.79,   1.66,-240.66,   1.40,   2.14,   0.18,   0.55,  -0.07,  19.00, 4.04, 0.00, 0.00, 0.00, 4.02, 1, 1, 10,  35.8843460, 126.7950609,   105.0, 2025,  2, 23,  6,  8, 24,       25,       86,  23,  73,   1.5,   0.8,   1.3, 20, 16, 19,  0,  0,  0, 26, 34,  0, 34,  0,  0,  0, 23,  0,  0, 18,  0,  0,  0,  0, 26,  0,  0,  0,  0, 33,  0,  0, 17,  0,  0
6, 10970, 17,HANARO,     2.05, -70,   6, 3,   boost,   82.38, 101230.00,    7.91,  171.52,  150.71, 10.2, 4.02, 4.02, 4.03,  93.77,   2.22,   0.20,-273.80,   2.75,   4.33,   0.19,   0.54,   0.14,  19.00, 4.04, 0.00, 0.00, 0.00, 4.02, 1, 1, 10,  35.8843460, 126.7950609,   105.0, 2025,  2, 23,  6,  8, 24,       25,       86,  23,  73,   1.5,   0.8,   1.3, 20, 16, 19,  0,  0,  0, 26, 34,  0, 34,  0,  0,  0, 23,  0,  0, 18,  0,  0,  0,  0, 26,  0,  0,  0,  0, 33,  0,  0, 17,  0,  0
6, 10970, 17,HANARO,     2.08, -71,   7, 3,   boost,   82.38, 101230.00,    7.91,  171.52,  150.71, 10.2, 4.02, 4.02, 4.03,  93.77,   2.22,   0.20,-273.80,   2.75,   4.33,   0.19,   0.54,   0.14,  19.00, 4.04, 0.00, 0.00, 0.00, 4.02, 1, 1, 10,  35.8843460, 126.7950609,   105.0, 2025,  2, 23,  6,  8, 24,       25,       86,  23,  73,   1.5,   0.8,   1.3, 20, 16, 19,  0,  0,  0, 26, 34,  0, 34,  0,  0,  0, 23,  0,  0, 18,  0,  0,  0,  0, 26,  0,  0,  0,  0, 33,  0,  0, 17,  0,  0
6, 10970, 17,HANARO,     2.16, -74,   9, 3,   boost,   80.41, 101025.00,   25.00,  188.62,  159.15, 10.2, 4.02, 4.02, 4.03,  91.56,   1.39,   1.69,-316.59,   3.72,   2.93,   0.18,   0.41,   0.36,  18.00, 4.04, 0.00, 0.00, 0.00, 4.02, 1, 1, 10,  35.8843460, 126.7950609,   105.0, 2025,  2, 23,  6,  8, 24,       25,       86,  23,  73,   1.5,   0.8,   1.3, 20, 16, 19,  0,  0,  0, 26, 34,  0, 34,  0,  0,  0, 23,  0,  0, 18,  0,  0,  0,  0, 26,  0,  0,  0,  0, 33,  0,  0, 17,  0,  0
6, 10970, 17,HANARO,     2.19, -73,   8, 3,   boost,   80.41, 101025.00,   25.00,  188.62,  159.15, 10.2, 4.02, 4.02, 4.04,  91.56,   1.39,   1.69,-316.59,   3.72,   2.93,   0.18,   0.41,   0.36,  18.00, 4.04, 0.00, 0.00, 0.00, 4.02, 1, 1, 10,  35.8843460, 126.7950609,   105.0, 2025,  2, 23,  6,  8, 24,       25,       86,  23,  73,   1.5,   0.8,   1.3, 20, 16, 19,  0,  0,  0, 26, 34,  0, 34,  0,  0,  0, 23,  0,  0, 18,  0,  0,  0,  0, 26,  0,  0,  0,  0, 33,  0,  0, 17,  0,  0
6, 10970, 17,HANARO,     2.27, -72,   7, 3,   boost,   78.45, 100747.00,   48.23,  211.84,  167.40, 10.2, 4.02, 4.02, 4.04,  89.68,   2.44,   0.07,-357.24,   6.59,   3.42,   0.18,   0.18,   0.47,  18.00, 4.04, 0.00, 0.00, 0.00, 4.02, 1, 1, 10,  35.8843460, 126.7950609,   105.0, 2025,  2, 23,  6,  8, 24,       25,       86,  23,  73,   1.5,   0.8,   1.3, 20, 16, 19,  0,  0,  0, 26, 34,  0, 34,  0,  0,  0, 23,  0,  0, 18,  0,  0,  0,  0, 26,  0,  0,  0,  0, 33,  0,  0, 17,  0,  0
6, 10970, 17,HANARO,     2.30, -72,   6, 3,   boost,   78.45, 100747.00,   48.23,  211.84,  167.40, 10.2, 4.02, 4.02, 4.04,  89.68,   2.44,   0.07,-357.24,   6.59,   3.42,   0.18,   0.18,   0.47,  18.00, 4.03, 0.00, 0.00, 0.00, 4.02, 1, 1, 10,  35.8843460, 126.7950609,   105.0, 2025,  2, 23,  6,  8, 24,       25,       86,  23,  73,   1.5,   0.8,   1.3, 20, 16, 19,  0,  0,  0, 26, 34,  0, 34,  0,  0,  0, 23,  0,  0, 18,  0,  0,  0,  0, 26,  0,  0,  0,  0, 33,  0,  0, 17,  0,  0
6, 10970, 17,HANARO,     2.38, -74,   9, 3,   boost,   77.47, 100520.00,   67.23,  230.84,  175.53, 10.2, 4.02, 4.02, 4.04,  87.07,   3.56,   3.28,-396.73,   5.49,   2.08,   0.17,  -0.09,   0.39,  17.00, 4.03, 0.00, 0.00, 0.00, 4.02, 1, 1, 10,  35.8843460, 126.7950609,   105.0, 2025,  2, 23,  6,  8, 24,       25,       86,  23,  73,   1.5,   0.8,   1.3, 20, 16, 19,  0,  0,  0, 26, 34,  0, 34,  0,  0,  0, 23,  0,  0, 18,  0,  0,  0,  0, 26,  0,  0,  0,  0, 33,  0,  0, 17,  0,  0
6, 10970, 17,HANARO,     2.41, -77,   6, 3,   boost,   77.47, 100520.00,   67.23,  230.84,  175.53, 10.2, 4.02, 4.02, 4.04,  87.07,   3.56,   3.28,-396.73,   5.49,   2.08,   0.17,  -0.09,   0.39,  17.00, 4.04, 0.00, 0.00, 0.00, 4.02, 1, 1, 10,  35.8843460, 126.7950609,   105.0, 2025,  2, 23,  6,  8, 24,       25,       86,  23,  73,   1.5,   0.8,   1.3, 20, 16, 19,  0,  0,  0, 26, 34,  0, 34,  0,  0,  0, 23,  0,  0, 18,  0,  0,  0,  0, 26,  0,  0,  0,  0, 33,  0,  0, 17,  0,  0
6, 10970, 17,HANARO,     2.49, -74,  10, 3,   boost,   71.10, 100252.00,   89.70,  253.32,  183.30, 10.2, 4.02, 4.02, 4.04,  82.53,   4.38,   1.29,-424.87,   6.23,   5.49,   0.16,  -0.24,   0.11,  17.00, 4.04, 0.00, 0.00, 0.00, 4.02, 1, 1, 10,  35.8843460, 126.7950609,   105.0, 2025,  2, 23,  6,  8, 24,       25,       86,  23,  73,   1.5,   0.8,   1.3, 20, 16, 19,  0,  0,  0, 26, 34,  0, 34,  0,  0,  0, 23,  0,  0, 18,  0,  0,  0,  0, 26,  0,  0,  0,  0, 33,  0,  0, 17,  0,  0
6, 10970, 17,HANARO,     2.52, -73,   7, 3,   boost,   71.10, 100252.00,   89.70,  253.32,  183.30, 10.2, 4.02, 4.02, 4.04,  82.53,   4.38,   1.29,-424.87,   6.23,   5.49,   0.16,  -0.24,   0.11,  17.00, 4.04, 0.00, 0.00, 0.00, 4.02, 1, 1, 10,  35.8843460, 126.7950609,   105.0, 2025,  2, 23,  6,  8, 24,       25,       86,  23,  73,   1.5,   0.8,   1.3, 17, 14, 21,  0,  0,  0, 26, 33,  0, 34,  0,  0,  0, 20,  0,  0, 20,  0,  0,  0,  0, 28,  0,  0,  0,  0, 35,  0,  0, 14,  0,  0
6, 10970, 17,HANARO,     2.52, -72,   9, 3,   boost,   71.10, 100252.00,   89.70,  253.32,  183.30, 10.2, 4.02, 4.02, 4.04,  82.53,   4.38,   1.29,-424.87,   6.23,   5.49,   0.16,  -0.24,   0.11,  17.00, 4.04, 0.00, 0.00, 0.00, 4.02, 1, 1, 10,  35.8843460, 126.7950609,   105.0, 2025,  2, 23,  6,  8, 24,       25,       86,  23,  73,   1.5,   0.8,   1.3, 17, 14, 21,  0,  0,  0, 26, 33,  0, 34,  0,  0,  0, 20,  0,  0, 20,  0,  0,  0,  0, 28,  0,  0,  0,  0, 35,  0,  0, 14,  0,  0
6, 10970, 17,HANARO,     2.58, -78,   6, 3,   boost,   71.10, 100252.00,   89.70,  253.32,  183.30, 10.2, 4.02, 4.02, 4.04,  82.53,   4.38,   1.29,-424.87,   6.23,   5.49,   0.16,  -0.24,   0.11,  17.00, 4.04, 0.00, 0.00, 0.00, 4.02, 1, 1,  8,  35.8845660, 126.7951476,   189.0, 2025,  2, 23,  6,  8, 25,       51,      174,  20,  73,   1.7,   0.9,   1.5, 17, 14, 21,  0,  0,  0, 26, 33,  0, 34,  0,  0,  0, 20,  0,  0, 20,  0,  0,  0,  0, 28,  0,  0,  0,  0, 35,  0,  0, 14,  0,  0
6, 10970, 17,HANARO,     2.60, -73,   7, 3,   boost,   65.70, 100011.00,  109.96,  273.57,  190.42, 10.2, 4.02, 4.02, 4.04,  77.27,   4.93,   1.87,-453.19,   8.18,   6.35,   0.16,  -0.14,  -0.23,  18.00, 4.04, 0.00, 0.00, 0.00, 4.02, 1, 1,  8,  35.8845660, 126.7951476,   189.0, 2025,  2, 23,  6,  8, 25,       51,      174,  20,  73,   1.7,   0.9,   1.5, 17, 14, 21,  0,  0,  0, 26, 33,  0, 34,  0,  0,  0, 20,  0,  0, 20,  0,  0,  0,  0, 28,  0,  0,  0,  0, 35,  0,  0, 14,  0,  0
6, 10970, 17,HANARO,     2.63, -73,   6, 3,   boost,   65.70, 100011.00,  109.96,  273.57,  190.42, 10.2, 4.02, 4.02, 4.04,  77.27,   4.93,   1.87,-453.19,   8.18,   6.35,   0.16,  -0.14,  -0.23,  18.00, 4.03, 0.00, 0.00, 0.00, 4.02, 1, 1,  8,  35.8845660, 126.7951476,   189.0, 2025,  2, 23,  6,  8, 25,       51,      174,  20,  73,   1.7,   0.9,   1.5, 17, 14, 21,  0,  0,  0, 26, 33,  0, 34,  0,  0,  0, 20,  0,  0, 20,  0,  0,  0,  0, 28,  0,  0,  0,  0, 35,  0,  0, 14,  0,  0
6, 10970, 17,HANARO,     2.71, -76,   9, 3,   boost,   59.33,  99722.00,  134.30,  297.91,  196.87, 10.2, 4.02, 4.02, 4.04,  71.31,   4.76,   3.24,-475.34,  12.02,   7.57,   0.16,   0.18,  -0.39,  20.00, 4.03, 0.00, 0.00, 0.00, 4.02, 1, 1,  8,  35.8845660, 126.7951476,   189.0, 2025,  2, 23,  6,  8, 25,       51,      174,  20,  73,   1.7,   0.9,   1.5, 17, 14, 21,  0,  0,  0, 26, 33,  0, 34,  0,  0,  0, 20,  0,  0, 20,  0,  0,  0,  0, 28,  0,  0,  0,  0, 35,  0,  0, 14,  0,  0
6, 10970, 17,HANARO,     2.74, -76,   7, 3,   boost,   59.33,  99722.00,  134.30,  297.91,  196.87, 10.2, 4.02, 4.02, 4.04,  71.31,   4.76,   3.24,-475.34,  12.02,   7.57,   0.16,   0.18,  -0.39,  20.00, 4.04, 0.00, 0.00, 0.00, 4.02, 1, 1,  8,  35.8845660, 126.7951476,   189.0, 2025,  2, 23,  6,  8, 25,       51,      174,  20,  73,   1.7,   0.9,   1.5, 17, 14, 21,  0,  0,  0, 26, 33,  0, 34,  0,  0,  0, 20,  0,  0, 20,  0,  0,  0,  0, 28,  0,  0,  0,  0, 35,  0,  0, 14,  0,  0
6, 10970, 17,HANARO,     2.82, -74,   6, 3,   boost,   50.50,  99492.00,  153.71,  317.33,  202.48, 10.2, 4.02, 4.02, 4.04,  63.11,   6.43,   3.91,-491.70,  14.89,   8.97,   0.17,   0.50,  -0.21,  20.00, 4.04, 0.00, 0.00, 0.00, 4.02, 1, 1,  8,  35.8845660, 126.7951476,   189.0, 2025,  2, 23,  6,  8, 25,       51,      174,  20,  73,   1.7,   0.9,   1.5, 17, 14, 21,  0,  0,  0, 26, 33,  0, 34,  0,  0,  0, 20,  0,  0, 20,  0,  0,  0,  0, 28,  0,  0,  0,  0, 35,  0,  0, 14,  0,  0
6, 10970, 17,HANARO,     2.85, -73,   6, 3,   boost,   50.50,  99492.00,  153.71,  317.33,  202.48, 10.2, 4.02, 4.02, 4.03,  63.11,   6.43,   3.91,-491.70,  14.89,   8.97,   0.17,   0.50,  -0.21,  20.00, 4.04, 0.00, 0.00, 0.00, 4.02, 1, 1,  8,  35.8845660, 126.7951476,   189.0, 2025,  2, 23,  6,  8, 25,       51,      174,  20,  73,   1.7,   0.9,   1.5, 17, 14, 21,  0,  0,  0, 26, 33,  0, 34,  0,  0,  0, 20,  0,  0, 20,  0,  0,  0,  0, 28,  0,  0,  0,  0, 35,  0,  0, 14,  0,  0
6, 10970, 17,HANARO,     2.93, -70,   4, 3,   boost,   38.74,  99212.00,  177.39,  341.01,  207.04, 10.2, 4.02, 4.02, 4.03,  52.45,   6.98,   4.58,-499.69,  14.71,  10.56,   0.18,   0.53,   0.18,  19.00, 4.04, 0.00, 0.00, 0.00, 4.02, 1, 1,  8,  35.8845660, 126.7951476,   189.0, 2025,  2, 23,  6,  8, 25,       51,      174,  20,  73,   1.7,   0.9,   1.5, 17, 14, 21,  0,  0,  0, 26, 33,  0, 34,  0,  0,  0, 20,  0,  0, 20,  0,  0,  0,  0, 28,  0,  0,  0,  0, 35,  0,  0, 14,  0,  0
6, 10970, 17,HANARO,     2.96, -70,   7, 3,   boost,   38.74,  99212.00,  177.39,  341.01,  207.04, 10.2, 4.02, 4.02, 4.04,  52.45,   6.98,   4.58,-499.69,  14.71,  10.56,   0.18,   0.53,   0.18,  19.00, 4.03, 0.00, 0.00, 0.00, 4.02, 1, 1,  8,  35.8845660, 126.7951476,   189.0, 2025,  2, 23,  6,  8, 25,       51,      174,  20,  73,   1.7,   0.9,   1.5, 17, 14, 21,  0,  0,  0, 26, 33,  0, 34,  0,  0,  0, 20,  0,  0, 20,  0,  0,  0,  0, 28,  0,  0,  0,  0, 35,  0,  0, 14,  0,  0
6, 10970, 17,HANARO,     3.04, -72,   6, 3,   boost,   25.01,  99000.00,  195.36,  358.97,  210.32, 10.2, 4.02, 4.02, 4.04,  38.52,   7.18,   5.72,-496.64,  18.55,  15.69,   0.19,   0.26,   0.45,  17.00, 4.03, 0.00, 0.00, 0.00, 4.02, 1, 1,  8,  35.8845660, 126.7951476,   189.0, 2025,  2, 23,  6,  8, 25,       51,      174,  20,  73,   1.7,   0.9,   1.5, 17, 14, 21,  0,  0,  0, 26, 33,  0, 34,  0,  0,  0, 20,  0,  0, 20,  0,  0,  0,  0, 28,  0,  0,  0,  0, 35,  0,  0, 14,  0,  0
6, 10970, 17,HANARO,     3.07, -75,   6, 3,   boost,   25.01,  99000.00,  195.36,  358.97,  210.32, 10.2, 4.02, 4.02, 4.04,  38.52,   7.18,   5.72,-496.64,  18.55,  15.69,   0.19,   0.26,   0.45,  17.00, 4.03, 0.00, 0.00, 0.00, 4.02, 1, 1,  8,  35.8845660, 126.7951476,   189.0, 2025,  2, 23,  6,  8, 25,       51,      174,  20,  73,   1.7,   0.9,   1.5, 17, 14, 21,  0,  0,  0, 26, 33,  0, 34,  0,  0,  0, 20,  0,  0, 20,  0,  0,  0,  0, 28,  0,  0,  0,  0, 35,  0,  0, 14,  0,  0
6, 10970, 17,HANARO,     3.15, -84,  10, 3,   boost,   13.73,  98770.00,  214.89,  378.50,  212.32, 10.2, 4.02, 4.02, 4.04,  22.39,   7.17,   8.43,-486.27,  20.51,  14.71,   0.18,  -0.10,   0.38,  15.00, 4.03, 0.00, 0.00, 0.00, 4.02, 1, 1,  8,  35.8845660, 126.7951476,   189.0, 2025,  2, 23,  6,  8, 25,       51,      174,  20,  73,   1.7,   0.9,   1.5, 17, 14, 21,  0,  0,  0, 26, 33,  0, 34,  0,  0,  0, 20,  0,  0, 20,  0,  0,  0,  0, 28,  0,  0,  0,  0, 35,  0,  0, 14,  0,  0
6, 10970, 17,HANARO,     3.18, -88,   7, 3,   boost,   13.73,  98770.00,  214.89,  378.50,  212.32, 10.2, 4.02, 4.02, 4.04,  22.39,   7.17,   8.43,-486.27,  20.51,  14.71,   0.18,  -0.10,   0.38,  15.00, 4.03, 0.00, 0.00, 0.00, 4.02, 1, 1,  8,  35.8845660, 126.7951476,   189.0, 2025,  2, 23,  6,  8, 25,       51,      174,  20,  73,   1.7,   0.9,   1.5, 17, 14, 21,  0,  0,  0, 26, 33,  0, 34,  0,  0,  0, 20,  0,  0, 20,  0,  0,  0,  0, 28,  0,  0,  0,  0, 35,  0,  0, 14,  0,  0
6, 10970, 17,HANARO,     3.26, -73,   6, 3,   boost,   -2.45,  98645.00,  225.52,  389.13,  212.88, 10.2, 4.02, 4.02, 4.04,   8.54,   9.18,  10.68,-424.80,  19.90,  20.69,   0.17,  -0.24,   0.06,  17.00, 4.03, 0.00, 0.00, 0.00, 4.02, 1, 1,  8,  35.8845660, 126.7951476,   189.0, 2025,  2, 23,  6,  8, 25,       51,      174,  20,  73,   1.7,   0.9,   1.5, 17, 14, 21,  0,  0,  0, 26, 33,  0, 34,  0,  0,  0, 20,  0,  0, 20,  0,  0,  0,  0, 28,  0,  0,  0,  0, 35,  0,  0, 14,  0,  0
6, 10970, 17,HANARO,     3.29, -78,  15, 3,   boost,   -2.45,  98645.00,  225.52,  389.13,  212.88, 10.2, 4.02, 4.02, 4.04,   8.54,   9.18,  10.68,-424.80,  19.90,  20.69,   0.17,  -0.24,   0.06,  17.00, 4.03, 0.00, 0.00, 0.00, 4.02, 1, 1,  8,  35.8845660, 126.7951476,   189.0, 2025,  2, 23,  6,  8, 25,       51,      174,  20,  73,   1.7,   0.9,   1.5, 17, 14, 21,  0,  0,  0, 26, 33,  0, 34,  0,  0,  0, 20,  0,  0, 20,  0,  0,  0,  0, 28,  0,  0,  0,  0, 35,  0,  0, 14,  0,  0
6, 10970, 17,HANARO,     3.37, -76,   6, 3,   boost,  -15.20,  98458.00,  241.44,  405.05,  211.91, 10.2, 4.02, 4.02, 4.04,  -0.65,   5.88,  13.18,-374.27,  21.67,  24.90,   0.14,  -0.14,  -0.24,  20.00, 4.03, 0.00, 0.00, 0.00, 4.02, 1, 1,  8,  35.8845660, 126.7951476,   189.0, 2025,  2, 23,  6,  8, 25,       51,      174,  20,  73,   1.7,   0.9,   1.5, 17, 14, 21,  0,  0,  0, 26, 33,  0, 34,  0,  0,  0, 20,  0,  0, 20,  0,  0,  0,  0, 28,  0,  0,  0,  0, 35,  0,  0, 14,  0,  0
6, 10970, 17,HANARO,     3.40, -79,   9, 5,   coast,  -15.20,  98458.00,  241.44,  405.05,  211.91, 10.2, 4.02, 4.02, 4.03,  -0.65,   5.88,  13.18,-374.27,  21.67,  24.90,   0.14,  -0.14,  -0.24,  20.00, 4.04, 0.00, 0.00, 0.00, 4.02, 1, 1,  8,  35.8845660, 126.7951476,   189.0, 2025,  2, 23,  6,  8, 25,       51,      174,  20,  73,   1.7,   0.9,   1.5, 17, 14, 21,  0,  0,  0, 26, 33,  0, 34,  0,  0,  0, 20,  0,  0, 20,  0,  0,  0,  0, 28,  0,  0,  0,  0, 35,  0,  0, 14,  0,  0
6, 10970, 17,HANARO,     3.48, -78,   6, 5,   coast,  -14.71,  98252.00,  259.00,  422.62,  210.31, 10.2, 4.02, 4.02, 4.03,  -8.28,   9.07,  17.54,-286.50,  23.93,  25.57,   0.13,   0.08,  -0.39,  23.00, 4.04, 0.00, 0.00, 0.00, 4.02, 1, 1,  8,  35.8845660, 126.7951476,   189.0, 2025,  2, 23,  6,  8, 25,       51,      174,  20,  73,   1.7,   0.9,   1.5, 17, 14, 21,  0,  0,  0, 26, 33,  0, 34,  0,  0,  0, 20,  0,  0, 20,  0,  0,  0,  0, 28,  0,  0,  0,  0, 35,  0,  0, 14,  0,  0
6, 10970, 17,HANARO,     3.51, -79,   8, 5,   coast,  -14.71,  98252.00,  259.00,  422.62,  210.31, 10.2, 4.02, 4.02, 4.04,  -8.28,   9.07,  17.54,-286.50,  23.93,  25.57,   0.13,   0.08,  -0.39,  23.00, 4.03, 0.00, 0.00, 0.00, 4.02, 1, 1,  8,  35.8845660, 126.7951476,   189.0, 2025,  2, 23,  6,  8, 25,       51,      174,  20,  73,   1.7,   0.9,   1.5, 17, 14, 21,  0,  0,  0, 26, 33,  0, 34,  0,  0,  0, 20,  0,  0, 20,  0,  0,  0,  0, 28,  0,  0,  0,  0, 35,  0,  0, 14,  0,  0
6, 10970, 17,HANARO,     3.58, -75,   7, 5,   coast,  -14.71,  98252.00,  259.00,  422.62,  210.31, 10.2, 4.02, 4.02, 4.04,  -8.28,   9.07,  17.54,-286.50,  23.93,  25.57,   0.13,   0.08,  -0.39,  23.00, 4.03, 0.00, 0.00, 0.00, 4.02, 1, 0,  0,  35.8845660, 126.7951476,   189.0, 2025,  2, 23,  6,  8, 25,       51,      174,  20,  73,  23.1,  23.1,  23.1, 17, 14, 21,  0,  0,  0, 26, 33,  0, 34,  0,  0,  0, 20,  0,  0, 20,  0,  0,  0,  0, 28,  0,  0,  0,  0, 35,  0,  0, 14,  0,  0
6, 10970, 17,HANARO,     3.59, -78,   5, 5,   coast,  -18.63,  97993.00,  281.13,  444.74,  208.53, 10.2, 4.02, 4.02, 4.04,  -9.44,   2.77,  20.99,-285.83,  14.04,  25.02,   0.12,   0.29,  -0.39,  24.00, 4.03, 0.00, 0.00, 0.00, 4.02, 1, 0,  0,  35.8845660, 126.7951476,   189.0, 2025,  2, 23,  6,  8, 25,       51,      174,  20,  73,  23.1,  23.1,  23.1, 17, 14, 21,  0,  0,  0, 26, 33,  0, 34,  0,  0,  0, 20,  0,  0, 20,  0,  0,  0,  0, 28,  0,  0,  0,  0, 35,  0,  0, 14,  0,  0
6, 10970, 17,HANARO,     3.62, -77,  12, 5,   coast,  -18.63,  97993.00,  281.13,  444.74,  208.53, 10.2, 4.02, 4.02, 4.04,  -9.44,   2.77,  20.99,-285.83,  14.04,  25.02,   0.12,   0.29,  -0.39,  24.00, 4.04, 0.00, 0.00, 0.00, 4.02, 1, 0,  0,  35.8845660, 126.7951476,   189.0, 2025,  2, 23,  6,  8, 25,       51,      174,  20,  73,  23.1,  23.1,  23.1, 15, 10, 30,  0,  0,  0, 31,  0,  0, 22,  0,  0,  0, 14,  0,  0, 22,  0,  0,  0,  0, 29,  0,  0,  0,  0, 26,  0,  0, 10,  0,  0
6, 10970, 17,HANARO,     3.62, -77,   8, 5,   coast,  -18.63,  97993.00,  281.13,  444.74,  208.53, 10.2, 4.02, 4.02, 4.04,  -9.44,   2.77,  20.99,-285.83,  14.04,  25.02,   0.12,   0.29,  -0.39,  24.00, 4.04, 0.00, 0.00, 0.00, 4.02, 1, 0,  0,  35.8845660, 126.7951476,   189.0, 2025,  2, 23,  6,  8, 25,       51,      174,  20,  73,  23.1,  23.1,  23.1, 15, 10, 30,  0,  0,  0, 31,  0,  0, 22,  0,  0,  0, 14,  0,  0, 22,  0,  0,  0,  0, 29,  0,  0,  0,  0, 26,  0,  0, 10,  0,  0
6, 10970, 17,HANARO,     3.70, -77,  12, 5,   coast,  -14.71,  97796.00,  297.99,  461.61,  206.76, 10.2, 4.02, 4.02, 4.04,  -9.61,   3.97,  18.78,-316.83,   4.09,  23.99,   0.14,   0.49,  -0.25,  23.00, 4.04, 0.00, 0.00, 0.00, 4.02, 1, 0,  0,  35.8845660, 126.7951476,   189.0, 2025,  2, 23,  6,  8, 25,       51,      174,  20,  73,  23.1,  23.1,  23.1, 15, 10, 30,  0,  0,  0, 31,  0,  0, 22,  0,  0,  0, 14,  0,  0, 22,  0,  0,  0,  0, 29,  0,  0,  0,  0, 26,  0,  0, 10,  0,  0
6, 10970, 17,HANARO,     3.73, -76,   6, 5,   coast,  -14.71,  97796.00,  297.99,  461.61,  206.76, 10.2, 4.02, 4.02, 4.03,  -9.61,   3.97,  18.78,-316.83,   4.09,  23.99,   0.14,   0.49,  -0.25,  23.00, 4.04, 0.00, 0.00, 0.00, 4.02, 1, 0,  0,  35.8845660, 126.7951476,   189.0, 2025,  2, 23,  6,  8, 25,       51,      174,  20,  73,  23.1,  23.1,  23.1, 15, 10, 30,  0,  0,  0, 31,  0,  0, 22,  0,  0,  0, 14,  0,  0, 22,  0,  0,  0,  0, 29,  0,  0,  0,  0, 26,  0,  0, 10,  0,  0
6, 10970, 17,HANARO,     3.81, -74,   8, 5,   coast,  -13.73,  97578.00,  316.69,  480.30,  205.23, 10.2, 4.02, 4.02, 4.03,  -9.30,   2.08,  15.81,-342.83,   5.43,  27.10,   0.17,   0.56,  -0.00,  20.00, 4.04, 0.00, 0.00, 0.00, 4.02, 1, 0,  0,  35.8845660, 126.7951476,   189.0, 2025,  2, 23,  6,  8, 25,       51,      174,  20,  73,  23.1,  23.1,  23.1, 15, 10, 30,  0,  0,  0, 31,  0,  0, 22,  0,  0,  0, 14,  0,  0, 22,  0,  0,  0,  0, 29,  0,  0,  0,  0, 26,  0,  0, 10,  0,  0
6, 10970, 17,HANARO,     3.84, -76,   6, 5,   coast,  -13.73,  97578.00,  316.69,  480.30,  205.23, 10.2, 4.02, 4.02, 4.04,  -9.30,   2.08,  15.81,-342.83,   5.43,  27.10,   0.17,   0.56,  -0.00,  20.00, 4.04, 0.00, 0.00, 0.00, 4.02, 1, 0,  0,  35.8845660, 126.7951476,   189.0, 2025,  2, 23,  6,  8, 25,       51,      174,  20,  73,  23.1,  23.1,  23.1, 15, 10, 30,  0,  0,  0, 31,  0,  0, 22,  0,  0,  0, 14,  0,  0, 22,  0,  0,  0,  0, 29,  0,  0,  0,  0, 26,  0,  0, 10,  0,  0
6, 10970, 17,HANARO,     3.92, -76,   6, 5,   coast,  -16.67,  97392.00,  332.66,  496.27,  203.59, 10.2, 4.02, 4.02, 4.04,  -8.94,   1.97,  12.81,-414.67,   1.04,  22.09,   0.18,   0.45,   0.32,  18.00, 4.04, 0.00, 0.00, 0.00, 4.02, 1, 0,  0,  35.8845660, 126.7951476,   189.0, 2025,  2, 23,  6,  8, 25,       51,      174,  20,  73,  23.1,  23.1,  23.1, 15, 10, 30,  0,  0,  0, 31,  0,  0, 22,  0,  0,  0, 14,  0,  0, 22,  0,  0,  0,  0, 29,  0,  0,  0,  0, 26,  0,  0, 10,  0,  0
6, 10970, 17,HANARO,     3.95, -76,   7, 5,   coast,  -16.67,  97392.00,  332.66,  496.27,  203.59, 10.2, 4.02, 4.02, 4.03,  -8.94,   1.97,  12.81,-414.67,   1.04,  22.09,   0.18,   0.45,   0.32,  18.00, 4.03, 0.00, 0.00, 0.00, 4.02, 1, 0,  0,  35.8845660, 126.7951476,   189.0, 2025,  2, 23,  6,  8, 25,       51,      174,  20,  73,  23.1,  23.1,  23.1, 15, 10, 30,  0,  0,  0, 31,  0,  0, 22,  0,  0,  0, 14,  0,  0, 22,  0,  0,  0,  0, 29,  0,  0,  0,  0, 26,  0,  0, 10,  0,  0
6, 10970, 17,HANARO,     4.03, -78,   7, 5,   coast,  -18.63,  97161.00,  352.53,  516.15,  201.69, 10.2, 4.02, 4.02, 4.03,  -8.99,   4.53,  12.01,-400.02,  10.13,  24.66,   0.18,   0.17,   0.47,  16.00, 4.03, 0.00, 0.00, 0.00, 4.02, 1, 0,  0,  35.8845660, 126.7951476,   189.0, 2025,  2, 23,  6,  8, 25,       51,      174,  20,  73,  23.1,  23.1,  23.1, 15, 10, 30,  0,  0,  0, 31,  0,  0, 22,  0,  0,  0, 14,  0,  0, 22,  0,  0,  0,  0, 29,  0,  0,  0,  0, 26,  0,  0, 10,  0,  0
6, 10970, 17,HANARO,     4.06, -78,   8, 5,   coast,  -18.63,  97161.00,  352.53,  516.15,  201.69, 10.2, 4.02, 4.02, 4.04,  -8.99,   4.53,  12.01,-400.02,  10.13,  24.66,   0.18,   0.17,   0.47,  16.00, 4.04, 0.00, 0.00, 0.00, 4.02, 1, 0,  0,  35.8845660, 126.7951476,   189.0, 2025,  2, 23,  6,  8, 25,       51,      174,  20,  73,  23.1,  23.1,  23.1, 15, 10, 30,  0,  0,  0, 31,  0,  0, 22,  0,  0,  0, 14,  0,  0, 22,  0,  0,  0,  0, 29,  0,  0,  0,  0, 26,  0,  0, 10,  0,  0
6, 10970, 17,HANARO,     4.14, -86,  10, 5,   coast,  -16.18,  96945.00,  371.15,  534.77,  199.81, 10.2, 4.02, 4.02, 4.04,  -8.81,   3.79,  12.75,-359.99,  11.41,  26.55,   0.17,  -0.10,   0.39,  17.00, 4.04, 0.00, 0.00, 0.00, 4.02, 1, 0,  0,  35.8845660, 126.7951476,   189.0, 2025,  2, 23,  6,  8, 25,       51,      174,  20,  73,  23.1,  23.1,  23.1, 15, 10, 30,  0,  0,  0, 31,  0,  0, 22,  0,  0,  0, 14,  0,  0, 22,  0,  0,  0,  0, 29,  0,  0,  0,  0, 26,  0,  0, 10,  0,  0
6, 10970, 17,HANARO,     4.17, -89,   7, 5,   coast,  -16.18,  96945.00,  371.15,  534.77,  199.81, 10.2, 4.02, 4.02, 4.04,  -8.81,   3.79,  12.75,-359.99,  11.41,  26.55,   0.17,  -0.10,   0.39,  17.00, 4.03, 0.00, 0.00, 0.00, 4.02, 1, 0,  0,  35.8845660, 126.7951476,   189.0, 2025,  2, 23,  6,  8, 25,       51,      174,  20,  73,  23.1,  23.1,  23.1, 15, 10, 30,  0,  0,  0, 31,  0,  0, 22,  0,  0,  0, 14,  0,  0, 22,  0,  0,  0,  0, 29,  0,  0,  0,  0, 26,  0,  0, 10,  0,  0
6, 10970, 17,HANARO,     4.25, -80,   6, 5,   coast,  -15.69,  96693.00,  392.92,  556.53,  198.09, 10.2, 4.02, 4.02, 4.04,  -8.80,   2.97,  12.75,-371.28,   9.70,  23.62,   0.15,  -0.25,   0.13,  19.00, 4.03, 0.00, 0.00, 0.00, 4.02, 1, 0,  0,  35.8845660, 126.7951476,   189.0, 2025,  2, 23,  6,  8, 25,       51,      174,  20,  73,  23.1,  23.1,  23.1, 15, 10, 30,  0,  0,  0, 31,  0,  0, 22,  0,  0,  0, 14,  0,  0, 22,  0,  0,  0,  0, 29,  0,  0,  0,  0, 26,  0,  0, 10,  0,  0
6, 10970, 17,HANARO,     4.28, -79,   6, 5,   coast,  -15.69,  96693.00,  392.92,  556.53,  198.09, 10.2, 4.02, 4.02, 4.03,  -8.80,   2.97,  12.75,-371.28,   9.70,  23.62,   0.15,  -0.25,   0.13,  19.00, 4.04, 0.00, 0.00, 0.00, 4.02, 1, 0,  0,  35.8845660, 126.7951476,   189.0, 2025,  2, 23,  6,  8, 25,       51,      174,  20,  73,  23.1,  23.1,  23.1, 15, 10, 30,  0,  0,  0, 31,  0,  0, 22,  0,  0,  0, 14,  0,  0, 22,  0,  0,  0,  0, 29,  0,  0,  0,  0, 26,  0,  0, 10,  0,  0
6, 10970, 17,HANARO,     4.36, -79,   8, 5,   coast,  -20.10,  96469.00,  412.30,  575.91,  196.18, 10.2, 4.02, 4.02, 4.03,  -8.59,   3.96,  14.22,-346.37,   6.47,  25.09,   0.13,  -0.20,  -0.17,  22.00, 4.04, 0.00, 0.00, 0.00, 4.02, 1, 0,  0,  35.8845660, 126.7951476,   189.0, 2025,  2, 23,  6,  8, 25,       51,      174,  20,  73,  23.1,  23.1,  23.1, 15, 10, 30,  0,  0,  0, 31,  0,  0, 22,  0,  0,  0, 14,  0,  0, 22,  0,  0,  0,  0, 29,  0,  0,  0,  0, 26,  0,  0, 10,  0,  0
6, 10970, 17,HANARO,     4.39, -79,   6, 5,   coast,  -20.10,  96469.00,  412.30,  575.91,  196.18, 10.2, 4.02, 4.02, 4.04,  -8.59,   3.96,  14.22,-346.37,   6.47,  25.09,   0.13,  -0.20,  -0.17,  22.00, 4.04, 0.00, 0.00, 0.00, 4.02, 1, 0,  0,  35.8845660, 126.7951476,   189.0, 2025,  2, 23,  6,  8, 25,       51,      174,  20,  73,  23.1,  23.1,  23.1, 15, 10, 30,  0,  0,  0, 31,  0,  0, 22,  0,  0,  0, 14,  0,  0, 22,  0,  0,  0,  0, 29,  0,  0,  0,  0, 26,  0,  0, 10,  0,  0
6, 10970, 17,HANARO,     4.47, -79,   7, 5,   coast,  -18.14,  96216.00,  434.24,  597.85,  194.16, 10.2, 4.02, 4.02, 4.04,  -8.34,   2.42,  12.57,-329.16,  13.67,  25.39,   0.12,  -0.01,  -0.36,  24.00, 4.04, 0.00, 0.00, 0.00, 4.02, 1, 0,  0,  35.8845660, 126.7951476,   189.0, 2025,  2, 23,  6,  8, 25,       51,      174,  20,  73,  23.1,  23.1,  23.1, 15, 10, 30,  0,  0,  0, 31,  0,  0, 22,  0,  0,  0, 14,  0,  0, 22,  0,  0,  0,  0, 29,  0,  0,  0,  0, 26,  0,  0, 10,  0,  0
6, 10970, 17,HANARO,     4.50, -79,   7, 5,   coast,  -18.14,  96216.00,  434.24,  597.85,  194.16, 10.2, 4.02, 4.02, 4.03,  -8.34,   2.42,  12.57,-329.16,  13.67,  25.39,   0.12,  -0.01,  -0.36,  24.00, 4.03, 0.00, 0.00, 0.00, 4.02, 1, 0,  0,  35.8845660, 126.7951476,   189.0, 2025,  2, 23,  6,  8, 25,       51,      174,  20,  73,  23.1,  23.1,  23.1, 15, 10, 30,  0,  0,  0, 31,  0,  0, 22,  0,  0,  0, 14,  0,  0, 22,  0,  0,  0,  0, 29,  0,  0,  0,  0, 26,  0,  0, 10,  0,  0
6, 10970, 17,HANARO,     4.58, -78,   8, 5,   coast,  -17.65,  95978.00,  454.92,  618.53,  192.27, 10.2, 4.02, 4.02, 4.03,  -8.25,   3.26,  12.29,-367.61,  10.80,  21.24,   0.12,   0.28,  -0.40,  25.00, 4.03, 0.00, 0.00, 0.00, 4.02, 1, 1,  6,  35.8853124, 126.7950079,   506.0, 2025,  2, 23,  6,  8, 27,      131,      500,   2,  75,   6.1,   1.6,   5.9, 15, 10, 30,  0,  0,  0, 31,  0,  0, 22,  0,  0,  0, 14,  0,  0, 22,  0,  0,  0,  0, 29,  0,  0,  0,  0, 26,  0,  0, 10,  0,  0
6, 10970, 17,HANARO,     4.58, -78,   8, 5,   coast,  -17.65,  95978.00,  454.92,  618.53,  192.27, 10.2, 4.02, 4.02, 4.03,  -8.25,   3.26,  12.29,-367.61,  10.80,  21.24,   0.12,   0.28,  -0.40,  25.00, 4.03, 0.00, 0.00, 0.00, 4.02, 1, 1,  6,  35.8853124, 126.7950079,   506.0, 2025,  2, 23,  6,  8, 27,      131,      500,   2,  75,   6.1,   1.6,   5.9, 15, 10, 30,  0,  0,  0, 31,  0,  0, 22,  0,  0,  0, 14,  0,  0, 22,  0,  0,  0,  0, 29,  0,  0,  0,  0, 26,  0,  0, 10,  0,  0
6, 10970, 17,HANARO,     4.61, -76,   7, 5,   coast,  -17.65,  95978.00,  454.92,  618.53,  192.27, 10.2, 4.02, 4.02, 4.04,  -8.25,   3.26,  12.29,-367.61,  10.80,  21.24,   0.12,   0.28,  -0.40,  25.00, 4.03, 0.00, 0.00, 0.00, 4.02, 1, 1,  6,  35.8853124, 126.7950079,   506.0, 2025,  2, 23,  6,  8, 27,      131,      500,   2,  75,   6.1,   1.6,   5.9, 15, 10, 30,  0,  0,  0, 31,  0,  0, 22,  0,  0,  0, 14,  0,  0, 22,  0,  0,  0,  0, 29,  0,  0,  0,  0, 26,  0,  0, 10,  0,  0
6, 10970, 17,HANARO,     4.69, -74,   7, 5,   coast,  -16.18,  95736.00,  475.99,  639.60,  190.48, 10.2, 4.02, 4.02, 4.04,  -7.86,   4.30,  11.34,-356.02,   8.36,  20.87,   0.14,   0.50,  -0.23,  24.00, 4.03, 0.00, 0.00, 0.00, 4.02, 1, 1,  6,  35.8853124, 126.7950079,   506.0, 2025,  2, 23,  6,  8, 27,      131,      500,   2,  75,   6.1,   1.6,   5.9, 15, 10, 30,  0,  0,  0, 31,  0,  0, 22,  0,  0,  0, 14,  0,  0, 22,  0,  0,  0,  0, 29,  0,  0,  0,  0, 26,  0,  0, 10,  0,  0
6, 10970, 17,HANARO,     4.72, -77,   7, 5,   coast,  -16.18,  95736.00,  475.99,  639.60,  190.48, 10.2, 4.02, 4.02, 4.03,  -7.86,   4.30,  11.34,-356.02,   8.36,  20.87,   0.14,   0.50,  -0.23,  24.00, 4.03, 0.00, 0.00, 0.00, 4.02, 1, 1,  6,  35.8853124, 126.7950079,   506.0, 2025,  2, 23,  6,  8, 27,      131,      500,   2,  75,   6.1,   1.6,   5.9, 10,  8, 24,  0,  0,  0, 31,  0,  0, 34,  0,  0,  0, 11,  0,  0, 21,  0,  0,  0,  0, 29,  0,  0,  0,  0, 32,  0,  0,  8,  0,  0
6, 10970, 17,HANARO,     4.72, -78,   5, 5,   coast,  -16.18,  95736.00,  475.99,  639.60,  190.48, 10.2, 4.02, 4.02, 4.03,  -7.86,   4.30,  11.34,-356.02,   8.36,  20.87,   0.14,   0.50,  -0.23,  24.00, 4.03, 0.00, 0.00, 0.00, 4.02, 1, 1,  6,  35.8853124, 126.7950079,   506.0, 2025,  2, 23,  6,  8, 27,      131,      500,   2,  75,   6.1,   1.6,   5.9, 10,  8, 24,  0,  0,  0, 31,  0,  0, 34,  0,  0,  0, 11,  0,  0, 21,  0,  0,  0,  0, 29,  0,  0,  0,  0, 32,  0,  0,  8,  0,  0
6, 10970, 17,HANARO,     4.80, -78,   8, 5,   coast,  -18.14,  95531.00,  493.87,  657.49,  188.65, 10.2, 4.02, 4.02, 4.03,  -7.77,   1.36,   9.22,-346.62,  10.07,  24.05,   0.15,   0.57,   0.04,  22.00, 4.03, 0.00, 0.00, 0.00, 4.02, 1, 1,  6,  35.8853124, 126.7950079,   506.0, 2025,  2, 23,  6,  8, 27,      131,      500,   2,  75,   6.1,   1.6,   5.9, 10,  8, 24,  0,  0,  0, 31,  0,  0, 34,  0,  0,  0, 11,  0,  0, 21,  0,  0,  0,  0, 29,  0,  0,  0,  0, 32,  0,  0,  8,  0,  0
6, 10970, 17,HANARO,     4.83, -78,   6, 5,   coast,  -18.14,  95531.00,  493.87,  657.49,  188.65, 10.2, 4.02, 4.02, 4.04,  -7.77,   1.36,   9.22,-346.62,  10.07,  24.05,   0.15,   0.57,   0.04,  22.00, 4.04, 0.00, 0.00, 0.00, 4.02, 1, 1,  6,  35.8853124, 126.7950079,   506.0, 2025,  2, 23,  6,  8, 27,      131,      500,   2,  75,   6.1,   1.6,   5.9, 10,  8, 24,  0,  0,  0, 31,  0,  0, 34,  0,  0,  0, 11,  0,  0, 21,  0,  0,  0,  0, 29,  0,  0,  0,  0, 32,  0,  0,  8,  0,  0
6, 10970, 17,HANARO,     4.91, -78,   5, 5,   coast,  -18.14,  95278.00,  515.98,  679.60,  186.72, 10.2, 4.02, 4.02, 4.04,  -7.59,   2.61,   9.62,-393.86,  10.50,  16.66,   0.17,   0.45,   0.33,  19.00, 4.04, 0.00, 0.00, 0.00, 4.02, 1, 1,  6,  35.8853124, 126.7950079,   506.0, 2025,  2, 23,  6,  8, 27,      131,      500,   2,  75,   6.1,   1.6,   5.9, 10,  8, 24,  0,  0,  0, 31,  0,  0, 34,  0,  0,  0, 11,  0,  0, 21,  0,  0,  0,  0, 29,  0,  0,  0,  0, 32,  0,  0,  8,  0,  0
6, 10970, 17,HANARO,     4.94, -76,   5, 5,   coast,  -18.14,  95278.00,  515.98,  679.60,  186.72, 10.2, 4.02, 4.02, 4.03,  -7.59,   2.61,   9.62,-393.86,  10.50,  16.66,   0.17,   0.45,   0.33,  19.00, 4.04, 0.00, 0.00, 0.00, 4.02, 1, 1,  6,  35.8853124, 126.7950079,   506.0, 2025,  2, 23,  6,  8, 27,      131,      500,   2,  75,   6.1,   1.6,   5.9, 10,  8, 24,  0,  0,  0, 31,  0,  0, 34,  0,  0,  0, 11,  0,  0, 21,  0,  0,  0,  0, 29,  0,  0,  0,  0, 32,  0,  0,  8,  0,  0
6, 10970, 17,HANARO,     5.02, -78,   8, 5,   coast,  -17.65,  95070.00,  534.20,  697.81,  184.79, 10.2, 4.02, 4.02, 4.03,  -7.28,   3.84,   9.87,-348.33,  10.50,  21.85,   0.17,   0.19,   0.48,  18.00, 4.04, 0.00, 0.00, 0.00, 4.02, 1, 1,  6,  35.8853124, 126.7950079,   506.0, 2025,  2, 23,  6,  8, 27,      131,      500,   2,  75,   6.1,   1.6,   5.9, 10,  8, 24,  0,  0,  0, 31,  0,  0, 34,  0,  0,  0, 11,  0,  0, 21,  0,  0,  0,  0, 29,  0,  0,  0,  0, 32,  0,  0,  8,  0,  0
6, 10970, 17,HANARO,     5.05, -84,   7, 5,   coast,  -17.65,  95070.00,  534.20,  697.81,  184.79, 10.2, 4.02, 4.02, 4.04,  -7.28,   3.84,   9.87,-348.33,  10.50,  21.85,   0.17,   0.19,   0.48,  18.00, 4.03, 0.00, 0.00, 0.00, 4.02, 1, 1,  6,  35.8853124, 126.7950079,   506.0, 2025,  2, 23,  6,  8, 27,      131,      500,   2,  75,   6.1,   1.6,   5.9, 10,  8, 24,  0,  0,  0, 31,  0,  0, 34,  0,  0,  0, 11,  0,  0, 21,  0,  0,  0,  0, 29,  0,  0,  0,  0, 32,  0,  0,  8,  0,  0
6, 10970, 17,HANARO,     5.16, -89,   6, 5,   coast,  -17.65,  95070.00,  534.20,  697.81,  184.79, 10.2, 4.02, 4.02, 4.04,  -7.28,   3.84,   9.87,-348.33,  10.50,  21.85,   0.17,   0.19,   0.48,  18.00, 4.03, 0.00, 0.00, 0.00, 4.02, 1, 1,  6,  35.8853124, 126.7950079,   506.0, 2025,  2, 23,  6,  8, 27,      131,      500,   2,  75,   6.1,   1.6,   5.9, 10,  8, 24,  0,  0,  0, 31,  0,  0, 34,  0,  0,  0, 11,  0,  0, 21,  0,  0,  0,  0, 29,  0,  0,  0,  0, 32,  0,  0,  8,  0,  0
6, 10970, 17,HANARO,     5.24, -81,   8, 5,   coast,  -15.20,  94616.00,  574.07,  737.68,  181.26, 10.2, 4.02, 4.02, 4.04,  -6.96,   2.30,  11.03,-349.24,  12.94,  20.08,   0.14,  -0.23,   0.22,  20.00, 4.03, 0.00, 0.00, 0.00, 4.02, 1, 1,  6,  35.8853124, 126.7950079,   506.0, 2025,  2, 23,  6,  8, 27,      131,      500,   2,  75,   6.1,   1.6,   5.9, 10,  8, 24,  0,  0,  0, 31,  0,  0, 34,  0,  0,  0, 11,  0,  0, 21,  0,  0,  0,  0, 29,  0,  0,  0,  0, 32,  0,  0,  8,  0,  0
6, 10970, 17,HANARO,     5.27, -81,  12, 5,   coast,  -15.20,  94616.00,  574.07,  737.68,  181.26, 10.2, 4.02, 4.02, 4.03,  -6.96,   2.30,  11.03,-349.24,  12.94,  20.08,   0.14,  -0.23,   0.22,  20.00, 4.03, 0.00, 0.00, 0.00, 4.02, 1, 1,  6,  35.8853124, 126.7950079,   506.0, 2025,  2, 23,  6,  8, 27,      131,      500,   2,  75,   6.1,   1.6,   5.9, 10,  8, 24,  0,  0,  0, 31,  0,  0, 34,  0,  0,  0, 11,  0,  0, 21,  0,  0,  0,  0, 29,  0,  0,  0,  0, 32,  0,  0,  8,  0,  0
6, 10970, 17,HANARO,     5.35, -78,   5, 5,   coast,  -15.20,  94371.00,  595.65,  759.26,  179.63, 10.2, 4.02, 4.02, 4.03,  -6.93,   4.13,  10.04,-320.19,  10.80,  21.30,   0.13,  -0.24,  -0.07,  22.00, 4.03, 0.00, 0.00, 0.00, 4.02, 1, 1,  6,  35.8853124, 126.7950079,   506.0, 2025,  2, 23,  6,  8, 27,      131,      500,   2,  75,   6.1,   1.6,   5.9, 10,  8, 24,  0,  0,  0, 31,  0,  0, 34,  0,  0,  0, 11,  0,  0, 21,  0,  0,  0,  0, 29,  0,  0,  0,  0, 32,  0,  0,  8,  0,  0
6, 10970, 17,HANARO,     5.38, -78,   6, 5,   coast,  -15.20,  94371.00,  595.65,  759.26,  179.63, 10.2, 4.02, 4.02, 4.04,  -6.93,   4.13,  10.04,-320.19,  10.80,  21.30,   0.13,  -0.24,  -0.07,  22.00, 4.04, 0.00, 0.00, 0.00, 4.02, 1, 1,  6,  35.8853124, 126.7950079,   506.0, 2025,  2, 23,  6,  8, 27,      131,      500,   2,  75,   6.1,   1.6,   5.9, 10,  8, 24,  0,  0,  0, 31,  0,  0, 34,  0,  0,  0, 11,  0,  0, 21,  0,  0,  0,  0, 29,  0,  0,  0,  0, 32,  0,  0,  8,  0,  0
6, 10970, 17,HANARO,     5.46, -77,   5, 5,   coast,  -17.65,  94169.00,  613.48,  777.09,  177.88, 10.2, 4.02, 4.02, 4.04,  -6.79,   3.92,   8.50,-280.33,   8.61,  24.35,   0.11,  -0.12,  -0.28,  25.00, 4.04, 0.00, 0.00, 0.00, 4.02, 1, 1,  6,  35.8853124, 126.7950079,   506.0, 2025,  2, 23,  6,  8, 27,      131,      500,   2,  75,   6.1,   1.6,   5.9, 10,  8, 24,  0,  0,  0, 31,  0,  0, 34,  0,  0,  0, 11,  0,  0, 21,  0,  0,  0,  0, 29,  0,  0,  0,  0, 32,  0,  0,  8,  0,  0
6, 10970, 17,HANARO,     5.49, -79,   6, 5,   coast,  -17.65,  94169.00,  613.48,  777.09,  177.88, 10.2, 4.02, 4.02, 4.04,  -6.79,   3.92,   8.50,-280.33,   8.61,  24.35,   0.11,  -0.12,  -0.28,  25.00, 4.04, 0.00, 0.00, 0.00, 4.02, 1, 1,  6,  35.8853124, 126.7950079,   506.0, 2025,  2, 23,  6,  8, 27,      131,      500,   2,  75,   6.1,   1.6,   5.9, 10,  8, 24,  0,  0,  0, 31,  0,  0, 34,  0,  0,  0, 11,  0,  0, 21,  0,  0,  0,  0, 29,  0,  0,  0,  0, 32,  0,  0,  8,  0,  0
6, 10970, 17,HANARO,     5.57, -76,   6, 5,   coast,  -19.61,  93934.00,  634.26,  797.87,  175.93, 10.2, 4.02, 4.02, 4.04,  -6.56,   1.47,   9.33,-326.72,  10.07,  20.26,   0.10,   0.10,  -0.40,  26.00, 4.04, 0.00, 0.00, 0.00, 4.02, 1, 1,  6,  35.8853124, 126.7950079,   506.0, 2025,  2, 23,  6,  8, 27,      131,      500,   2,  75,   6.1,   1.6,   5.9, 10,  8, 24,  0,  0,  0, 31,  0,  0, 34,  0,  0,  0, 11,  0,  0, 21,  0,  0,  0,  0, 29,  0,  0,  0,  0, 32,  0,  0,  8,  0,  0
6, 10970, 17,HANARO,     5.58, -80,   7, 5,   coast,  -19.61,  93934.00,  634.26,  797.87,  175.93, 10.2, 4.02, 4.02, 4.04,  -6.56,   1.47,   9.33,-326.72,  10.07,  20.26,   0.10,   0.10,  -0.40,  26.00, 4.04, 0.00, 0.00, 0.00, 4.02, 1, 0,  0,  35.8853124, 126.7950079,   506.0, 2025,  2, 23,  6,  8, 27,      131,      500,   2,  75,  23.1,  23.1,  23.1, 10,  8, 24,  0,  0,  0, 31,  0,  0, 34,  0,  0,  0, 11,  0,  0, 21,  0,  0,  0,  0, 29,  0,  0,  0,  0, 32,  0,  0,  8,  0,  0
6, 10970, 17,HANARO,     5.60, -78,   7, 5,   coast,  -19.61,  93934.00,  634.26,  797.87,  175.93, 10.2, 4.02, 4.02, 4.04,  -6.56,   1.47,   9.33,-326.72,  10.07,  20.26,   0.10,   0.10,  -0.40,  26.00, 4.03, 0.00, 0.00, 0.00, 4.02, 1, 0,  0,  35.8853124, 126.7950079,   506.0, 2025,  2, 23,  6,  8, 27,      131,      500,   2,  75,  23.1,  23.1,  23.1, 10,  8, 24,  0,  0,  0, 31,  0,  0, 34,  0,  0,  0, 11,  0,  0, 21,  0,  0,  0,  0, 29,  0,  0,  0,  0, 32,  0,  0,  8,  0,  0
